[
    {
      "name": "The Greenbelt",
      "note": "Porous limestone that can take a couple days to dry out.",
      "mountainProject": "https://www.mountainproject.com/area/105905087/barton-creek-greenbelt",
      "station": "KATT",
      "office": "EWX\/153,89",
      "coordinates": [
        -97.801,
        30.244
      ]
    },
    {
      "name": "Continental Ranch",
      "note": "Hard limestone, so dries fairly fast. The ranch also seems to sit in a weather bubble with the rain passing around it.",
      "mountainProject": "https://www.mountainproject.com/area/106169626/continental-ranch",
      "station": "KDRT",
      "office": "EWX\/14,74",
      "coordinates": [
        -101.44,
        29.803
      ]
    },
    {
      "name": "Reimer's Ranch",
      "note": "Porous limestone that can take a couple days to dry out.",
      "mountainProject": "https://www.mountainproject.com/area/105837312/reimers-ranch",
      "station": "KRYW",
      "office": "EWX\/141,93",
      "coordinates": [
        -98.122,
        30.334
      ]
    },
    {
      "name": "Cochise Stronghold",
      "note": "Granite, so the exposed areas dry fast.",
      "mountainProject": "https://www.mountainproject.com/area/105738034/cochise-stronghold",
      "station": "KFHU",
      "office": "TWC\/125,31",
      "coordinates": [
        -109.987,
        31.921
      ]
    },
    {
      "name": "Enchanted Rock",
      "note": "Granite, so the exposed areas dry fast.",
      "mountainProject": "https://www.mountainproject.com/area/105855196/enchanted-rock-state-natural-area",
      "station": "KT82",
      "office": "EWX\/114,101",
      "coordinates": [
        -98.821,
        30.503
      ]
    },
    {
      "name": "Horseshoe Canyon Ranch",
      "note": "Sandstone, so give it plenty of time to dry so it doesn't get damaged.",
      "mountainProject": "https://www.mountainproject.com/area/105903004/horseshoe-canyon-ranch",
      "station": "KHRO",
      "office": "LZK\/44,127",
      "coordinates": [
        -93.292,
        36.012
      ]
    },
    {
      "name": "Last Chance Canyon",
      "note": "Limestone",
      "mountainProject": "https://www.mountainproject.com/area/105920274/last-chance-canyon",
      "station": "KGDP",
      "office": "MAF\/16,149",
      "coordinates": [
        -104.754,
        32.234
      ]
    },
    {
      "name": "Georgetown",
      "note": "Porous limestone that can take a couple days to dry out.",
      "mountainProject": "https://www.mountainproject.com/area/106715082/georgetown-hospital",
      "station": "KGTU",
      "office": "EWX\/157,106",
      "coordinates": [
        -97.69,
        30.627
      ]
    },
    {
      "name": "McKinney Falls",
      "note": "Porous limestone that can take a couple days to dry out.",
      "mountainProject": "https://www.mountainproject.com/area/106265889/mckinney-falls-state-park",
      "station": "KAUS",
      "office": "EWX\/156,86",
      "coordinates": [
        -97.722,
        30.181
      ]
    }
  ]